[{"loc": {"lat": 48.1562478, "lng": 17.1260457}, "name": "Pohotovos\u0165 stomatologick\u00e1 / zubn\u00e1 (LSPP) (Kr\u00ed\u017ena) - MUDr. Michal Straka , CSc.", "city": "Bratislava", "phone": "02 / 381 046 70", "postcode": "82108", "openings": {"1": {"close": "24:00", "open": "08:00"}, "3": {"close": "24:00", "open": "08:00"}, "2": {"close": "24:00", "open": "08:00"}, "5": {"close": "24:00", "open": "08:00"}, "4": {"close": "24:00", "open": "08:00"}, "7": {"close": "24:00", "open": "08:00"}, "6": {"close": "24:00", "open": "08:00"}}, "adress": "Kr\u00ed\u017ena 44"}, {"loc": {"lat": 48.1638921, "lng": 17.1390321}, "name": "Zubn\u00e1 pohovos\u0165 (LSPP) (Tri Ve\u017ee, Bajkalsk\u00e1) Dental pro s.r.o.", "city": "Bratislava", "phone": "0944 407 091", "postcode": "83104", "openings": {"1": {"close": "24:00", "open": "08:00"}, "3": {"close": "24:00", "open": "08:00"}, "2": {"close": "24:00", "open": "08:00"}, "5": {"close": "24:00", "open": "08:00"}, "4": {"close": "24:00", "open": "08:00"}, "7": {"close": "24:00", "open": "08:00"}, "6": {"close": "24:00", "open": "08:00"}}, "adress": "Bajk\u00e1lska 9"}, {"loc": {"lat": 48.1491346, "lng": 17.0505733}, "name": "1. Bratislavsk\u00e1 zubn\u00e1 pohotovos\u0165, spol. s r.o. (LSPP) Kres\u00e1nkova", "city": "Bratislava", "phone": "+421 2 39 22 44 33", "postcode": "84105", "openings": {"1": {"close": "24:00", "open": "08:00"}, "3": {"close": "24:00", "open": "08:00"}, "2": {"close": "24:00", "open": "08:00"}, "5": {"close": "24:00", "open": "08:00"}, "4": {"close": "24:00", "open": "08:00"}, "7": {"close": "24:00", "open": "08:00"}, "6": {"close": "24:00", "open": "08:00"}}, "adress": "Kres\u00e1nkova 20"}, {"loc": {"lat": 48.161217, "lng": 17.163728}, "name": "Pohotovos\u0165 stomatologick\u00e1 / zubn\u00e1 (LSPP) (Drie\u0148ov\u00e1) DENTA Group, s.r.o.", "city": "Bratislava", "phone": "+421 2 43423433", "postcode": "82102", "openings": {"1": {"close": "24:00", "open": "08:00"}, "3": {"close": "24:00", "open": "08:00"}, "2": {"close": "24:00", "open": "08:00"}, "5": {"close": "24:00", "open": "08:00"}, "4": {"close": "24:00", "open": "08:00"}, "7": {"close": "24:00", "open": "08:00"}, "6": {"close": "24:00", "open": "08:00"}}, "adress": "Drie\u0148ov\u00e1 38"}, {"loc": {"lat": 48.1485965, "lng": 17.1077477}, "name": "Pohotovos\u0165 n\u00e1v\u0161tevn\u00e1 pre dospel\u00fdch (LSPP) - v\u00fdjazdov\u00e1 MED STAR, s.r.o.", "city": "Bratislava", "phone": "+421 2 63 833 130", "postcode": "85101", "openings": {"1": {"close": "24:00", "open": "08:00"}, "3": {"close": "24:00", "open": "08:00"}, "2": {"close": "24:00", "open": "08:00"}, "5": {"close": "24:00", "open": "08:00"}, "4": {"close": "24:00", "open": "08:00"}, "7": {"close": "24:00", "open": "08:00"}, "6": {"close": "24:00", "open": "08:00"}}, "adress": "neur\u010den\u00e1"}, {"loc": {"lat": 48.1551254, "lng": 17.1543973}, "name": "Pohotovos\u0165 pre dospel\u00fdch (LSPP) (Ru\u017einovsk\u00e1) MED STAR, s.r.o.", "city": "Bratislava", "phone": "+421 2 48279257", "postcode": "82007", "openings": {"1": {"close": "24:00", "open": "08:00"}, "3": {"close": "24:00", "open": "08:00"}, "2": {"close": "24:00", "open": "08:00"}, "5": {"close": "24:00", "open": "08:00"}, "4": {"close": "24:00", "open": "08:00"}, "7": {"close": "24:00", "open": "08:00"}, "6": {"close": "24:00", "open": "08:00"}}, "adress": "Ru\u017einovsk\u00e1 10"}, {"loc": {"lat": 48.105094, "lng": 17.106565}, "name": "Pohotovos\u0165 pre dospel\u00fdch (LSPP) (Stre\u010dnianska) MED STAR, s.r.o.", "city": "Bratislava", "phone": "02 / 622 509 44", "postcode": "85105", "openings": {"1": {"close": "24:00", "open": "08:00"}, "3": {"close": "24:00", "open": "08:00"}, "2": {"close": "24:00", "open": "08:00"}, "5": {"close": "24:00", "open": "08:00"}, "4": {"close": "24:00", "open": "08:00"}, "7": {"close": "24:00", "open": "08:00"}, "6": {"close": "24:00", "open": "08:00"}}, "adress": "Stre\u010dnianska 13"}, {"loc": {"lat": 48.1671637, "lng": 17.0905592}, "name": "Pohotovos\u0165 pre deti a dorast (LSPP) (Limbov\u00e1)", "city": "Bratislava", "phone": "02 / 593 71 512", "postcode": "83351", "openings": {"1": {"close": "24:00", "open": "08:00"}, "3": {"close": "24:00", "open": "08:00"}, "2": {"close": "24:00", "open": "08:00"}, "5": {"close": "24:00", "open": "08:00"}, "4": {"close": "24:00", "open": "08:00"}, "7": {"close": "24:00", "open": "08:00"}, "6": {"close": "24:00", "open": "08:00"}}, "adress": "Limbov\u00e1 1"}, {"loc": {"lat": 48.2859901, "lng": 17.2734963}, "name": "Pohotovos\u0165 ambulantn\u00e1 pre deti (LSPP) LSPP Pezinok s.r.o.", "city": "Pezinok", "phone": "033 / 6413 536", "postcode": "90201", "openings": {"1": {"close": "24:00", "open": "08:00"}, "3": {"close": "24:00", "open": "08:00"}, "2": {"close": "24:00", "open": "08:00"}, "5": {"close": "24:00", "open": "08:00"}, "4": {"close": "24:00", "open": "08:00"}, "7": {"close": "24:00", "open": "08:00"}, "6": {"close": "24:00", "open": "08:00"}}, "adress": "Holl\u00e9ho 2"}, {"loc": {"lat": 48.2859901, "lng": 17.2734963}, "name": "Pohotovos\u0165 ambulantn\u00e1 pre dospel\u00fdch (LSPP) LSPP Pezinok s.r.o.", "city": "Pezinok", "phone": "033 / 6413 536", "postcode": "90201", "openings": {"1": {"close": "24:00", "open": "08:00"}, "3": {"close": "24:00", "open": "08:00"}, "2": {"close": "24:00", "open": "08:00"}, "5": {"close": "24:00", "open": "08:00"}, "4": {"close": "24:00", "open": "08:00"}, "7": {"close": "24:00", "open": "08:00"}, "6": {"close": "24:00", "open": "08:00"}}, "adress": "Holl\u00e9ho 2"}, {"loc": {"lat": 48.438122, "lng": 17.0182636}, "name": "Pohotovos\u0165 pre dospel\u00fdch - v\u00fdjazdov\u00e1 a ambulantn\u00e1 (LSPP) (Mal\u00e9 N\u00e1mestie)", "city": "Malacky", "phone": "+421 919 456456", "postcode": "90101", "openings": {"1": {"close": "24:00", "open": "08:00"}, "3": {"close": "24:00", "open": "08:00"}, "2": {"close": "24:00", "open": "08:00"}, "5": {"close": "24:00", "open": "08:00"}, "4": {"close": "24:00", "open": "08:00"}, "7": {"close": "24:00", "open": "08:00"}, "6": {"close": "24:00", "open": "08:00"}}, "adress": "Mal\u00e9 N\u00e1mestie 1/A"}, {"loc": {"lat": 48.4363404, "lng": 17.0182641}, "name": "Pohotovos\u0165 pre deti a dorast - v\u00fdjazdov\u00e1 (LSPP) (Mal\u00e9 N\u00e1mestie)", "city": "Malacky", "phone": "+421 919 456456", "postcode": "90101", "openings": {"1": {"close": "24:00", "open": "08:00"}, "3": {"close": "24:00", "open": "08:00"}, "2": {"close": "24:00", "open": "08:00"}, "5": {"close": "24:00", "open": "08:00"}, "4": {"close": "24:00", "open": "08:00"}, "7": {"close": "24:00", "open": "08:00"}, "6": {"close": "24:00", "open": "08:00"}}, "adress": "Mal\u00e9 N\u00e1mestie  1/AV\u00fdjazdov\u00e1/n\u00e1v\u0161tevn\u00e1 LSPP"}, {"loc": {"lat": 48.1485965, "lng": 17.1077477}, "name": "Pohotovos\u0165 pre dospel\u00fdch - v\u00fdjazdov\u00e1 (LSPP) (Stre\u010dnianska) MED STAR, s.r.o.", "city": "Bratislava", "phone": "+421 2 638 33130", "postcode": "85105", "openings": {"1": {"close": "24:00", "open": "08:00"}, "3": {"close": "24:00", "open": "08:00"}, "2": {"close": "24:00", "open": "08:00"}, "5": {"close": "24:00", "open": "08:00"}, "4": {"close": "24:00", "open": "08:00"}, "7": {"close": "24:00", "open": "08:00"}, "6": {"close": "24:00", "open": "08:00"}}, "adress": "Stre\u010dnianska 13, V\u00ddJAZDOV\u00c1 LSPP"}, {"loc": {"lat": 48.2771871, "lng": 17.257083}, "name": "Ambulancia lek\u00e1rskej slu\u017eby prvej pomoci (ne\u0161tandardn\u00e1) URGENT.SK s.r.o. - MUDr. Lucia Pr\u00e9tiov\u00e1", "city": "Pezinok", "phone": "+421 911 911 511", "postcode": "90203", "openings": {"1": {"close": "24:00", "open": "08:00"}, "3": {"close": "24:00", "open": "08:00"}, "2": {"close": "24:00", "open": "08:00"}, "5": {"close": "24:00", "open": "08:00"}, "4": {"close": "24:00", "open": "08:00"}, "7": {"close": "24:00", "open": "08:00"}, "6": {"close": "24:00", "open": "08:00"}}, "adress": "Myslenick\u00e1 1/E"}, {"loc": {"lat": 48.2124122, "lng": 17.3808394}, "name": "Ambulancia lek\u00e1rskej slu\u017eby prvej pomoci (ne\u0161tandardn\u00e1) - DM Resustic Slovakia, s.r.o. - MUDr. Martin Balko", "city": "Senec", "phone": "+421 2 4592 44 22", "postcode": "90301", "openings": {"1": {"close": "24:00", "open": "08:00"}, "3": {"close": "24:00", "open": "08:00"}, "2": {"close": "24:00", "open": "08:00"}, "5": {"close": "24:00", "open": "08:00"}, "4": {"close": "24:00", "open": "08:00"}, "7": {"close": "24:00", "open": "08:00"}, "6": {"close": "24:00", "open": "08:00"}}, "adress": "Karola \u0160i\u0161ku 5"}, {"loc": {"lat": 48.1219956, "lng": 17.0982387}, "name": "Zubn\u00e1 pohovos\u0165 (LSPP) (Kop\u010dianska) Vienna Dental Clinic s.r.o.", "city": "Bratislava", "phone": "+421 0948336656", "postcode": "85101", "openings": {"1": {"close": "24:00", "open": "08:00"}, "3": {"close": "24:00", "open": "08:00"}, "2": {"close": "24:00", "open": "08:00"}, "5": {"close": "24:00", "open": "08:00"}, "4": {"close": "24:00", "open": "08:00"}, "7": {"close": "24:00", "open": "08:00"}, "6": {"close": "24:00", "open": "08:00"}}, "adress": "Kop\u010dianska 8-10"}, {"loc": {"lat": 48.1979973, "lng": 17.2067061}, "name": "Z\u00e1chrann\u00e1 zdravotn\u00e1 slu\u017eba - ambulancia r\u00fdchlej zdravotnej pomoci - INTERNATIONAL RESCUE SYSTEM s.r.o.", "city": "Bratislava - mestsk\u00e1 \u010das\u0165 Vajnory", "phone": "+421 2446 802 07", "postcode": "83107", "openings": {"1": {"close": "24:00", "open": "08:00"}, "3": {"close": "24:00", "open": "08:00"}, "2": {"close": "24:00", "open": "08:00"}, "5": {"close": "24:00", "open": "08:00"}, "4": {"close": "24:00", "open": "08:00"}, "7": {"close": "24:00", "open": "08:00"}, "6": {"close": "24:00", "open": "08:00"}}, "adress": "\u010cierny chodn\u00edk  34"}]